[
    {
        "name": "Turkey",
        "provinces": [
            {
                "name": "Adana",
                "state_code": 1,
                "cities": [
                    {
                        "name": "Çukurova",
                        "lat": "37.1009369",
                        "lng": "35.0883939"
                    },
                    {
                        "name": "Sarıçam",
                        "lat": "37.036160",
                        "lng": "35.413920"
                    },
                    {
                        "name": "Seyhan",
                        "lat": "36.983459",
                        "lng": "35.331841"
                    },
                    {
                        "name": "Yüreğir",
                        "lat": "36.985451",
                        "lng": "35.337070"
                    },
                    {
                        "name": "Aladağ",
                        "lat": "37.547009",
                        "lng": "35.395088"
                    },
                    {
                        "name": "Ceyhan",
                        "lat": "37.179089",
                        "lng": "35.685822"
                    },
                    {
                        "name": "Feke",
                        "lat": "37.896407",
                        "lng": "35.678176"
                    },
                    {
                        "name": "İmamoğlu",
                        "lat": "37.2587844",
                        "lng": "35.6394529"
                    },
                    {
                        "name": "Karaisalı",
                        "lat": "37.2544876",
                        "lng": "35.0535051"
                    },
                    {
                        "name": "Karataş",
                        "lat": "36.5618468",
                        "lng": "35.3668803"
                    },
                    {
                        "name": "Kozan",
                        "lat": "37.4533428",
                        "lng": "35.7860079"
                    },
                    {
                        "name": "Pozantı",
                        "lat": "37.4276371",
                        "lng": "34.8604962"
                    },
                    {
                        "name": "Saimbeyli",
                        "lat": "37.9429619",
                        "lng": "35.922066"
                    },
                    {
                        "name": "Tufanbeyli",
                        "lat": "38.2610314",
                        "lng": "36.2100758"
                    },
                    {
                        "name": "Yumurtalık",
                        "lat": "36.774261",
                        "lng": "35.7839361"
                    }
                ]
            },
            {
                "name": "Adıyaman",
                "state_code": 2,
                "cities": [
                    {
                        "name": "Merkez",
                        "lat": "37.7046964",
                        "lng": "37.9093165"
                    },
                    {
                        "name": "Besni",
                        "lat": "37.69618",
                        "lng": "37.8558057"
                    },
                    {
                        "name": "Çelikhan",
                        "lat": "38.0322009",
                        "lng": "38.2252948"
                    },
                    {
                        "name": "Gerger",
                        "lat": "38.0272344",
                        "lng": "39.0266212"
                    },
                    {
                        "name": "Gölbaşı",
                        "lat": "37.7855255",
                        "lng": "37.6335507"
                    },
                    {
                        "name": "Kahta",
                        "lat": "37.7831221",
                        "lng": "38.6039414"
                    },
                    {
                        "name": "Samsat",
                        "lat": "37.5785309",
                        "lng": "38.4619886"
                    },
                    {
                        "name": "Sincik",
                        "lat": "38.0336624",
                        "lng": "38.4122801"
                    },
                    {
                        "name": "Tut",
                        "lat": "37.7928569",
                        "lng": "37.9063681"
                    }
                ]
            },
            {
                "name": "Afyonkarahisar",
                "state_code": 3,
                "cities": [
                    {
                        "name": "Merkez",
                        "lat": "38.774211",
                        "lng": "30.3579562"
                    },
                    {
                        "name": "Başmakçı",
                        "lat": "37.8881529",
                        "lng": "29.9961747"
                    },
                    {
                        "name": "Bayat",
                        "lat": "38.9812261",
                        "lng": "30.9031737"
                    },
                    {
                        "name": "Bolvadin",
                        "lat": "38.7152896",
                        "lng": "31.033906"
                    },
                    {
                        "name": "Çay",
                        "lat": "38.5923016",
                        "lng": "30.9860866"
                    },
                    {
                        "name": "Çobanlar",
                        "lat": "38.7007756",
                        "lng": "30.758328"
                    },
                    {
                        "name": "Dazkırı",
                        "lat": "37.9258436",
                        "lng": "29.717587"
                    },
                    {
                        "name": "Dinar",
                        "lat": "38.06924997",
                        "lng": "30.121912"
                    },
                    {
                        "name": "Emirdağ",
                        "lat": "39.0129852",
                        "lng": "31.0160808"
                    },
                    {
                        "name": "Evciler",
                        "lat": "38.0389205",
                        "lng": "29.8810973"
                    },
                    {
                        "name": "Hocalar",
                        "lat": "38.5779477",
                        "lng": "29.9473647"
                    },
                    {
                        "name": "İhsaniye",
                        "lat": "39.0290787",
                        "lng": "30.4112101"
                    },
                    {
                        "name": "İscehisar",
                        "lat": "38.8623208",
                        "lng": "30.7427528"
                    },
                    {
                        "name": "Kızılören",
                        "lat": "38.2577145",
                        "lng": "30.1400022"
                    },
                    {
                        "name": "Sandıklı",
                        "lat": "38.4562238",
                        "lng": "30.2478529"
                    },
                    {
                        "name": "Sinanpaşa",
                        "lat": "38.7442232",
                        "lng": "30.2364261"
                    },
                    {
                        "name": "Sultandağı",
                        "lat": "38.5292408",
                        "lng": "31.2194488"
                    },
                    {
                        "name": "Şuhut",
                        "lat": "38.5331168",
                        "lng": "30.5405638"
                    }
                ]
            },
            {
                "name": "Ağrı",
                "state_code": 4,
                "cities": [
                    {
                        "name": "Merkez",
                        "lat": "39.7773258",
                        "lng": "42.5158427"
                    },
                    {
                        "name": "Diyadin",
                        "lat": "39.5439868",
                        "lng": "43.6512739"
                    },
                    {
                        "name": "Doğubayazıt",
                        "lat": "39.5550708",
                        "lng": "44.0508334"
                    },
                    {
                        "name": "Eleşkirt",
                        "lat": "39.8018885",
                        "lng": "42.6678078"
                    },
                    {
                        "name": "Hamur",
                        "lat": "39.6087542",
                        "lng": "42.9840331"
                    },
                    {
                        "name": "Patnos",
                        "lat": "39.2328513",
                        "lng": "42.8372398"
                    },
                    {
                        "name": "Taşlıçay",
                        "lat": "39.6353081",
                        "lng": "43.3659008"
                    },
                    {
                        "name": "Tutaka",
                        "lat": "39.5439461",
                        "lng": "42.7636366"
                    }
                ]
            },
            {
                "name": "Amasya",
                "state_code": 5,
                "cities": [
                    {
                        "name": "Merkez",
                        "lat": "40.640297",
                        "lng": "35.549442"
                    },
                    {
                        "name": "Göynücek",
                        "lat": "40.3930514",
                        "lng": "35.5145217"
                    },
                    {
                        "name": "Gümüşhacıköy",
                        "lat": "40.8762773",
                        "lng": "35.2048137"
                    },
                    {
                        "name": "Hamamözü",
                        "lat": "40.7845779",
                        "lng": "35.0185516"
                    },
                    {
                        "name": "Merzifon",
                        "lat": "40.8749651",
                        "lng": "35.4366401"
                    },
                    {
                        "name": "Suluova",
                        "lat": "40.8416601",
                        "lng": "35.609887"
                    },
                    {
                        "name": "Taşova",
                        "lat": "40.7600138",
                        "lng": "36.3177428"
                    }
                ]
            },
            {
                "name": "Ankara",
                "state_code": 6,
                "cities": [
                    {
                        "name": "Akyurt",
                        "lat": "40.1297384",
                        "lng": "33.062108"
                    },
                    {
                        "name": "Altındağ",
                        "lat": "40.7600138",
                        "lng": "36.3177428"
                    },
                    {
                        "name": "Ayaş",
                        "lat": "40.022166",
                        "lng": "32.3073854"
                    },
                    {
                        "name": "Bala",
                        "lat": "39.5525251",
                        "lng": "33.1093893"
                    },
                    {
                        "name": "Beypazarı",
                        "lat": "40.1624044",
                        "lng": "31.905395"
                    },
                    {
                        "name": "Çamlıdere",
                        "lat": "40.496404",
                        "lng": "32.1778208"
                    },
                    {
                        "name": "Çankaya",
                        "lat": "39.7963565",
                        "lng": "32.2589429"
                    },
                    {
                        "name": "Çubuk",
                        "lat": "40.2155956",
                        "lng": "32.9905405"
                    },
                    {
                        "name": "Elmadağ",
                        "lat": "39.8817758",
                        "lng": "33.0411363"
                    },
                    {
                        "name": "Etimesgut",
                        "lat": "39.864643",
                        "lng": "32.4752048"
                    },
                    {
                        "name": "Evren",
                        "lat": "39.0436733",
                        "lng": "33.6868096"
                    },
                    {
                        "name": "Gölbaşı",
                        "lat": "39.7853962",
                        "lng": "32.784275"
                    },
                    {
                        "name": "Güdül",
                        "lat": "40.2122168",
                        "lng": "32.2292067"
                    },
                    {
                        "name": "Haymana",
                        "lat": "39.4352271",
                        "lng": "32.4935302"
                    },
                    {
                        "name": "Kahramankazan",
                        "lat": "40.2039354",
                        "lng": "32.6453067"
                    },
                    {
                        "name": "Kalecik",
                        "lat": "40.180013",
                        "lng": "33.2686228"
                    },
                    {
                        "name": "Keçiören",
                        "lat": "40.086671",
                        "lng": "32.6555054"
                    },
                    {
                        "name": "Kızılcahamam",
                        "lat": "40.4724404",
                        "lng": "32.6389807"
                    },
                    {
                        "name": "Mamak",
                        "lat": "39.9049229",
                        "lng": "32.7099175"
                    },
                    {
                        "name": "Nallıhan",
                        "lat": "40.1829285",
                        "lng": "31.324798"
                    },
                    {
                        "name": "Polatlı",
                        "lat": "39.4224763",
                        "lng": "31.7704517"
                    },
                    {
                        "name": "Pursaklar",
                        "lat": "39.4224763",
                        "lng": "31.7704517"
                    },
                    {
                        "name": "Sincan",
                        "lat": "39.8885678",
                        "lng": "32.0902954"
                    },
                    {
                        "name": "Şereflikoçhisar",
                        "lat": "38.9375541",
                        "lng": "33.5256084"
                    },
                    {
                        "name": "Yenimahalle",
                        "lat": "40.0080983",
                        "lng": "32.6227601"
                    }
                ]
            },
            {
                "name": "Antalya",
                "state_code": 7,
                "cities": [
                    {
                        "name": "Aksu",
                        "lat": "37.0464751",
                        "lng": "30.5382403"
                    },
                    {
                        "name": "Döşemealtı",
                        "lat": "37.0112034",
                        "lng": "30.564897"
                    },
                    {
                        "name": "Kepez",
                        "lat": "37.0317426",
                        "lng": "30.5332685"
                    },
                    {
                        "name": "Konyaaltı",
                        "lat": "36.8192843",
                        "lng": "30.2024906"
                    },
                    {
                        "name": "Muratpaşa",
                        "lat": "36.8881873",
                        "lng": "30.6804336"
                    },
                    {
                        "name": "Akseki",
                        "lat": "37.044615",
                        "lng": "31.7879377"
                    },
                    {
                        "name": "Alanya",
                        "lat": "36.5438649",
                        "lng": "31.9714525"
                    },
                    {
                        "name": "Demre",
                        "lat": "36.2461259",
                        "lng": "29.9675784"
                    },
                    {
                        "name": "Elmalı",
                        "lat": "36.7328896",
                        "lng": "29.9029659"
                    },
                    {
                        "name": "Finike",
                        "lat": "36.3037683",
                        "lng": "30.1361599"
                    },
                    {
                        "name": "Gazipaşa",
                        "lat": "36.2776709",
                        "lng": "32.3007528"
                    },
                    {
                        "name": "Gündoğmuş",
                        "lat": "36.810705",
                        "lng": "31.9941212"
                    },
                    {
                        "name": "İbradı",
                        "lat": "37.0954579",
                        "lng": "31.5932052"
                    },
                    {
                        "name": "Kaş",
                        "lat": "36.3756955",
                        "lng": "29.2638351"
                    },
                    {
                        "name": "Kemer",
                        "lat": "36.6024256",
                        "lng": "30.5241004"
                    },
                    {
                        "name": "Korkuteli",
                        "lat": "37.072574",
                        "lng": "30.1828699"
                    },
                    {
                        "name": "Kumluca",
                        "lat": "36.3480861",
                        "lng": "30.2351056"
                    },
                    {
                        "name": "Manavgat",
                        "lat": "36.7861371",
                        "lng": "31.4280614"
                    },
                    {
                        "name": "Serik",
                        "lat": "36.9218266",
                        "lng": "31.0825644"
                    }
                ]
            },
            {
                "name": "Artvin",
                "state_code": 8,
                "cities": [
                    {
                        "name": "Merkez",
                        "lat": "41.8859692",
                        "lng": "34.8546782"
                    },
                    {
                        "name": "Ayancık",
                        "lat": "41.833097",
                        "lng": "34.4025717"
                    },
                    {
                        "name": "Boyabat",
                        "lat": "41.4658736",
                        "lng": "34.7678428"
                    },
                    {
                        "name": "Dikmen",
                        "lat": "41.5836241",
                        "lng": "35.0924547"
                    },
                    {
                        "name": "Durağan",
                        "lat": "41.4207455",
                        "lng": "35.0462528"
                    },
                    {
                        "name": "Erfelek",
                        "lat": "41.850529",
                        "lng": "34.7164057"
                    },
                    {
                        "name": "Gerze",
                        "lat": "41.8019902",
                        "lng": "35.166545"
                    },
                    {
                        "name": "Saraydüzü",
                        "lat": "41.3003756",
                        "lng": "34.7190811"
                    },
                    {
                        "name": "Türkeli",
                        "lat": "41.9453004",
                        "lng": "34.3346212"
                    }
                ]
            },
            {
                "name": "Aydın",
                "state_code": 9,
                "cities": [
                    {
                        "name": "Merkez",
                        "lat": "37.8251124",
                        "lng": "27.8165786"
                    },
                    {
                        "name": "Bozdoğan",
                        "lat": "37.6709668",
                        "lng": "28.3059817"
                    },
                    {
                        "name": "Buharkent",
                        "lat": "37.972019",
                        "lng": "28.7293763"
                    },
                    {
                        "name": "Çine",
                        "lat": "37.6125747",
                        "lng": "28.0415089"
                    },
                    {
                        "name": "Didim",
                        "lat": "37.3723398",
                        "lng": "27.248315"
                    },
                    {
                        "name": "Germencik",
                        "lat": "37.8703409",
                        "lng": "27.5875953"
                    },
                    {
                        "name": "İncirliova",
                        "lat": "37.8518239",
                        "lng": "27.7146493"
                    },
                    {
                        "name": "Karacasu",
                        "lat": "37.7284683",
                        "lng": "28.5990812"
                    },
                    {
                        "name": "Karpuzlu",
                        "lat": "37.5597719",
                        "lng": "27.8291021"
                    },
                    {
                        "name": "Koçarlı",
                        "lat": "37.7606616",
                        "lng": "27.6943913"
                    },
                    {
                        "name": "Köşk",
                        "lat": "37.852756",
                        "lng": "28.0430167"
                    },
                    {
                        "name": "Kuşadası",
                        "lat": "37.8557625",
                        "lng": "27.2196136"
                    },
                    {
                        "name": "Kuyucak",
                        "lat": "37.914157",
                        "lng": "28.4525088"
                    },
                    {
                        "name": "Nazilli",
                        "lat": "37.9103171",
                        "lng": "28.3059635"
                    },
                    {
                        "name": "Söke",
                        "lat": "37.7526511",
                        "lng": "27.3927999"
                    },
                    {
                        "name": "Sultanhisar",
                        "lat": "37.8896349",
                        "lng": "28.1460531"
                    },
                    {
                        "name": "Yenipazar",
                        "lat": "37.8263675",
                        "lng": "28.1845528"
                    }
                ]
            },
            {
                "name": "Balıkesir",
                "state_code": 10,
                "cities": [
                    {
                        "name": "Altıeylül",
                        "lat": "39.5579549",
                        "lng": "27.7086318"
                    },
                    {
                        "name": "Karesi",
                        "lat": "39.7889442",
                        "lng": "27.6433573"
                    },
                    {
                        "name": "Ayvalık",
                        "lat": "39.3336394",
                        "lng": "26.6881209"
                    },
                    {
                        "name": "Balya",
                        "lat": "39.7496746",
                        "lng": "27.5741767"
                    },
                    {
                        "name": "Bandırma",
                        "lat": "40.3389601",
                        "lng": "27.9250324"
                    },
                    {
                        "name": "Bigadiç",
                        "lat": "39.4013388",
                        "lng": "28.1162158"
                    },
                    {
                        "name": "Burhaniye",
                        "lat": "39.5025057",
                        "lng": "26.9623972"
                    },
                    {
                        "name": "Dursunbey",
                        "lat": "39.5846136",
                        "lng": "28.6150967"
                    },
                    {
                        "name": "Erdemit",
                        "lat": "39.5937251",
                        "lng": "27.0136363"
                    },
                    {
                        "name": "Erdek",
                        "lat": "40.4027509",
                        "lng": "27.7649099"
                    },
                    {
                        "name": "Gömeç",
                        "lat": "39.3855336",
                        "lng": "26.8288623"
                    },
                    {
                        "name": "Gönen",
                        "lat": "40.1073498",
                        "lng": "27.6318655"
                    },
                    {
                        "name": "Havran",
                        "lat": "39.5599297",
                        "lng": "27.0906406"
                    },
                    {
                        "name": "İvrindi",
                        "lat": "39.5812236",
                        "lng": "27.4833342"
                    },
                    {
                        "name": "Kepsut",
                        "lat": "39.6882977",
                        "lng": "28.1485558"
                    },
                    {
                        "name": "Manyas",
                        "lat": "40.0461606",
                        "lng": "27.9667351"
                    },
                    {
                        "name": "Marmara",
                        "lat": "40.5681555",
                        "lng": "27.5222791"
                    },
                    {
                        "name": "Savaştepe",
                        "lat": "39.3854956",
                        "lng": "27.6425707"
                    },
                    {
                        "name": "Sındırgı",
                        "lat": "39.2429237",
                        "lng": "28.1648838"
                    },
                    {
                        "name": "Susurluk",
                        "lat": "39.914644",
                        "lng": "28.1480877"
                    }
                ]
            },
            {
                "name": "Bilecik",
                "state_code": 11,
                "cities": [
                    {
                        "name": "Merkez",
                        "lat": "40.1499",
                        "lng": "29.9825"
                    },
                    {
                        "name": "Bozüyük",
                        "lat": "39.9070",
                        "lng": "30.0547"
                    },
                    {
                        "name": "Gölpazarı",
                        "lat": "40.0707",
                        "lng": "30.1650"
                    },
                    {
                        "name": "İnhisar",
                        "lat": "39.8806",
                        "lng": "30.0506"
                    },
                    {
                        "name": "Osmaneli",
                        "lat": "40.4282",
                        "lng": "30.5161"
                    },
                    {
                        "name": "Pazaryeri",
                        "lat": "40.0843",
                        "lng": "30.0107"
                    },
                    {
                        "name": "Söğüt",
                        "lat": "40.1665",
                        "lng": "30.1660"
                    },
                    {
                        "name": "Yenipazar",
                        "lat": "40.0867",
                        "lng": "30.6458"
                    }
                ]
            },
            {
                "name": "Bingöl",
                "state_code": 12,
                "cities": [
                    {
                        "name": "Merkez",
                        "lat": "38.8841",
                        "lng": "40.4937"
                    },
                    {
                        "name": "Adaklı",
                        "lat": "39.0625",
                        "lng": "40.4128"
                    },
                    {
                        "name": "Genç",
                        "lat": "38.7402",
                        "lng": "40.5894"
                    },
                    {
                        "name": "Karlıova",
                        "lat": "39.3292",
                        "lng": "40.7986"
                    },
                    {
                        "name": "Kiğı",
                        "lat": "39.2404",
                        "lng": "40.8363"
                    },
                    {
                        "name": "Solhan",
                        "lat": "38.9581",
                        "lng": "41.0419"
                    },
                    {
                        "name": "Yayladere",
                        "lat": "38.7722",
                        "lng": "40.8831"
                    },
                    {
                        "name": "Yedisu",
                        "lat": "38.9553",
                        "lng": "41.2252"
                    }
                ]
            },
            {
                "name": "Bitlis",
                "state_code": 13,
                "cities": [
                    {
                        "name": "Merkez",
                        "lat": "38.3939",
                        "lng": "42.1239"
                    },
                    {
                        "name": "Adilcevaz",
                        "lat": "38.8135",
                        "lng": "42.7016"
                    },
                    {
                        "name": "Ahlat",
                        "lat": "38.7483",
                        "lng": "42.4049"
                    },
                    {
                        "name": "Güroymak",
                        "lat": "38.6994",
                        "lng": "42.9811"
                    },
                    {
                        "name": "Hizan",
                        "lat": "38.1385",
                        "lng": "42.2621"
                    },
                    {
                        "name": "Mutki",
                        "lat": "38.5531",
                        "lng": "41.6079"
                    },
                    {
                        "name": "Tatvan",
                        "lat": "38.5136",
                        "lng": "42.2810"
                    }
                ]
            },
            {
                "name": "Bolu",
                "state_code": 14,
                "cities": [
                    {
                        "name": "Merkez",
                        "lat": "40.7390",
                        "lng": "31.6116"
                    },
                    {
                        "name": "Dörtdivan",
                        "lat": "40.9500",
                        "lng": "31.7836"
                    },
                    {
                        "name": "Gerede",
                        "lat": "40.8008",
                        "lng": "32.1830"
                    },
                    {
                        "name": "Göynük",
                        "lat": "40.1206",
                        "lng": "31.8878"
                    },
                    {
                        "name": "Kıbrıscık",
                        "lat": "40.4608",
                        "lng": "32.1211"
                    },
                    {
                        "name": "Mengen",
                        "lat": "40.8016",
                        "lng": "31.6743"
                    },
                    {
                        "name": "Mudurnu",
                        "lat": "40.3889",
                        "lng": "31.1999"
                    },
                    {
                        "name": "Seben",
                        "lat": "40.5114",
                        "lng": "30.5370"
                    },
                    {
                        "name": "Yeniçağa",
                        "lat": "40.8099",
                        "lng": "31.8904"
                    }
                ]
            },
            {
                "name": "Burdur",
                "state_code": 15,
                "cities": [
                    {
                        "name": "Merkez",
                        "lat": "37.7264",
                        "lng": "30.2889"
                    },
                    {
                        "name": "Ağlasun",
                        "lat": "37.6616",
                        "lng": "30.5343"
                    },
                    {
                        "name": "Altınyayla",
                        "lat": "37.7060",
                        "lng": "30.2313"
                    },
                    {
                        "name": "Bucak",
                        "lat": "37.4583",
                        "lng": "30.5833"
                    },
                    {
                        "name": "Çavdır",
                        "lat": "37.6336",
                        "lng": "29.9454"
                    },
                    {
                        "name": "Çeltikçi",
                        "lat": "37.8219",
                        "lng": "30.4705"
                    },
                    {
                        "name": "Gölhisar",
                        "lat": "37.8036",
                        "lng": "29.8233"
                    },
                    {
                        "name": "Karamanlı",
                        "lat": "37.7029",
                        "lng": "30.0081"
                    },
                    {
                        "name": "Kemer",
                        "lat": "37.9926",
                        "lng": "30.0571"
                    },
                    {
                        "name": "Tefenni",
                        "lat": "37.8546",
                        "lng": "29.9009"
                    },
                    {
                        "name": "Yeşilova",
                        "lat": "37.7553",
                        "lng": "29.7701"
                    }
                ]
            },
            {
                "name": "Bursa",
                "state_code": 16,
                "cities": [
                    {
                        "name": "Osmangazi",
                        "lat": "40.1923",
                        "lng": "29.0678"
                    },
                    {
                        "name": "Yıldırım",
                        "lat": "40.2333",
                        "lng": "29.1569"
                    },
                    {
                        "name": "Nilüfer",
                        "lat": "40.9948",
                        "lng": "29.1087"
                    },
                    {
                        "name": "Gürsu",
                        "lat": "40.2281",
                        "lng": "29.3558"
                    },
                    {
                        "name": "Kestel",
                        "lat": "40.1596",
                        "lng": "29.2754"
                    },
                    {
                        "name": "Mudanya",
                        "lat": "40.3831",
                        "lng": "28.8806"
                    },
                    {
                        "name": "Gemlik",
                        "lat": "40.4325",
                        "lng": "29.1608"
                    },
                    {
                        "name": "İnegöl",
                        "lat": "40.0808",
                        "lng": "29.5090"
                    },
                    {
                        "name": "Karacabey",
                        "lat": "40.2182",
                        "lng": "28.3630"
                    },
                    {
                        "name": "Orhangazi",
                        "lat": "40.4882",
                        "lng": "29.4064"
                    },
                    {
                        "name": "Yenişehir",
                        "lat": "40.2589",
                        "lng": "29.5603"
                    },
                    {
                        "name": "Gönen",
                        "lat": "40.2258",
                        "lng": "29.1010"
                    },
                    {
                        "name": "Mustafakemalpaşa",
                        "lat": "40.0366",
                        "lng": "28.4201"
                    }
                ]
            },
            {
                "name": "Çanakkale",
                "state_code": 17,
                "cities": [
                    {
                        "name": "Merkez",
                        "lat": "40.1456",
                        "lng": "26.4069"
                    },
                    {
                        "name": "Ayvacık",
                        "lat": "39.5340",
                        "lng": "26.5151"
                    },
                    {
                        "name": "Bayramiç",
                        "lat": "39.7711",
                        "lng": "26.9780"
                    },
                    {
                        "name": "Biga",
                        "lat": "40.2275",
                        "lng": "27.2479"
                    },
                    {
                        "name": "Bozcaada",
                        "lat": "39.8339",
                        "lng": "26.0464"
                    },
                    {
                        "name": "Çan",
                        "lat": "40.0317",
                        "lng": "27.0709"
                    },
                    {
                        "name": "Eceabat",
                        "lat": "40.1658",
                        "lng": "26.3594"
                    },
                    {
                        "name": "Ezine",
                        "lat": "39.7736",
                        "lng": "26.3303"
                    },
                    {
                        "name": "Gelibolu",
                        "lat": "40.4146",
                        "lng": "26.6773"
                    },
                    {
                        "name": "Gökçeada",
                        "lat": "40.1709",
                        "lng": "25.8655"
                    },
                    {
                        "name": "Lapseki",
                        "lat": "40.3664",
                        "lng": "26.6865"
                    },
                    {
                        "name": "Yenice",
                        "lat": "40.0364",
                        "lng": "26.8856"
                    }
                ]
            },
            {
                "name": "Çankırı",
                "state_code": 18,
                "cities": [
                    {
                        "name": "Merkez",
                        "lat": "40.6014",
                        "lng": "33.6139"
                    },
                    {
                        "name": "Atkaracalar",
                        "lat": "40.7361",
                        "lng": "33.3083"
                    },
                    {
                        "name": "Çerkeş",
                        "lat": "40.8154",
                        "lng": "32.7912"
                    },
                    {
                        "name": "Eldivan",
                        "lat": "40.7566",
                        "lng": "33.3653"
                    },
                    {
                        "name": "Ilgaz",
                        "lat": "40.9639",
                        "lng": "33.4975"
                    },
                    {
                        "name": "Kızılırmak",
                        "lat": "40.5502",
                        "lng": "33.3492"
                    },
                    {
                        "name": "Korgun",
                        "lat": "40.8358",
                        "lng": "33.2264"
                    },
                    {
                        "name": "Kurşunlu",
                        "lat": "40.7112",
                        "lng": "33.2243"
                    },
                    {
                        "name": "Orta",
                        "lat": "40.8161",
                        "lng": "32.8458"
                    },
                    {
                        "name": "Şabanözü",
                        "lat": "40.7250",
                        "lng": "33.1279"
                    },
                    {
                        "name": "Yapraklı",
                        "lat": "40.8791",
                        "lng": "32.9358"
                    }
                ]
            },
            {
                "name": "Çorum",
                "state_code": 19,
                "cities": [
                    {
                        "name": "Merkez",
                        "lat": "40.5506",
                        "lng": "34.9556"
                    },
                    {
                        "name": "Alaca",
                        "lat": "40.2679",
                        "lng": "34.9460"
                    },
                    {
                        "name": "Bayat",
                        "lat": "40.3989",
                        "lng": "35.1560"
                    },
                    {
                        "name": "Boğazkale",
                        "lat": "40.0153",
                        "lng": "34.6128"
                    },
                    {
                        "name": "Dodurga",
                        "lat": "40.5063",
                        "lng": "35.1029"
                    },
                    {
                        "name": "İskilip",
                        "lat": "41.5906",
                        "lng": "34.2245"
                    },
                    {
                        "name": "Kargı",
                        "lat": "40.6499",
                        "lng": "34.8677"
                    },
                    {
                        "name": "Laçin",
                        "lat": "40.9723",
                        "lng": "34.8905"
                    },
                    {
                        "name": "Mecitözü",
                        "lat": "40.4894",
                        "lng": "34.7723"
                    },
                    {
                        "name": "Oğuzlar",
                        "lat": "40.5806",
                        "lng": "35.3690"
                    },
                    {
                        "name": "Ortaköy",
                        "lat": "40.5594",
                        "lng": "34.9252"
                    },
                    {
                        "name": "Osmancık",
                        "lat": "40.7157",
                        "lng": "34.5947"
                    },
                    {
                        "name": "Sungurlu",
                        "lat": "40.1794",
                        "lng": "34.3583"
                    },
                    {
                        "name": "Uğurludağ",
                        "lat": "40.9044",
                        "lng": "34.5662"
                    }
                ]
            },
            {
                "name": "Denizli",
                "state_code": 20,
                "cities": [
                    {
                        "name": "Merkezefendi",
                        "lat": "37.7828",
                        "lng": "29.0634"
                    },
                    {
                        "name": "Pamukkale",
                        "lat": "37.7997",
                        "lng": "29.0864"
                    },
                    {
                        "name": "Çivril",
                        "lat": "38.2700",
                        "lng": "29.9870"
                    },
                    {
                        "name": "Acıpayam",
                        "lat": "37.3859",
                        "lng": "29.0800"
                    },
                    {
                        "name": "Buldan",
                        "lat": "38.0456",
                        "lng": "28.9283"
                    },
                    {
                        "name": "Çal",
                        "lat": "38.0056",
                        "lng": "29.3330"
                    },
                    {
                        "name": "Çameli",
                        "lat": "37.3720",
                        "lng": "28.9575"
                    },
                    {
                        "name": "Güney",
                        "lat": "37.1133",
                        "lng": "29.5049"
                    },
                    {
                        "name": "Honaz",
                        "lat": "37.7707",
                        "lng": "29.3323"
                    },
                    {
                        "name": "Kale",
                        "lat": "37.2726",
                        "lng": "29.5737"
                    },
                    {
                        "name": "Sarayköy",
                        "lat": "37.9278",
                        "lng": "28.9004"
                    },
                    {
                        "name": "Serinhisar",
                        "lat": "37.6386",
                        "lng": "29.2535"
                    },
                    {
                        "name": "Tavas",
                        "lat": "37.6471",
                        "lng": "29.0806"
                    }
                ]
            },
            {
                "name": "Diyarbakır",
                "state_code": 21,
                "cities": [
                    {
                        "name": "Bağlar",
                        "lat": "37.9147",
                        "lng": "40.2244"
                    },
                    {
                        "name": "Kayapınar",
                        "lat": "37.9116",
                        "lng": "40.2219"
                    },
                    {
                        "name": "Sur",
                        "lat": "37.9199",
                        "lng": "40.2322"
                    },
                    {
                        "name": "Yenişehir",
                        "lat": "37.8989",
                        "lng": "40.2470"
                    },
                    {
                        "name": "Bismil",
                        "lat": "37.8478",
                        "lng": "40.5795"
                    },
                    {
                        "name": "Çermik",
                        "lat": "38.1358",
                        "lng": "39.4489"
                    },
                    {
                        "name": "Çınar",
                        "lat": "37.7259",
                        "lng": "40.3258"
                    },
                    {
                        "name": "Çüngüş",
                        "lat": "38.2787",
                        "lng": "39.0964"
                    },
                    {
                        "name": "Dicle",
                        "lat": "37.9976",
                        "lng": "40.3902"
                    },
                    {
                        "name": "Eğil",
                        "lat": "38.0525",
                        "lng": "40.3483"
                    },
                    {
                        "name": "Ergani",
                        "lat": "37.2500",
                        "lng": "40.4989"
                    },
                    {
                        "name": "Hani",
                        "lat": "37.6604",
                        "lng": "40.4246"
                    },
                    {
                        "name": "Hazro",
                        "lat": "38.1628",
                        "lng": "40.7074"
                    },
                    {
                        "name": "Kocaköy",
                        "lat": "37.6569",
                        "lng": "40.7687"
                    },
                    {
                        "name": "Kulp",
                        "lat": "38.1981",
                        "lng": "40.0810"
                    },
                    {
                        "name": "Lice",
                        "lat": "38.4728",
                        "lng": "40.5800"
                    },
                    {
                        "name": "Silvan",
                        "lat": "38.1372",
                        "lng": "41.0063"
                    }
                ]
            },
            {
                "name": "Edirne",
                "state_code": 22,
                "cities": [
                    {
                        "name": "Merkez",
                        "lat": "41.6667",
                        "lng": "26.5667"
                    },
                    {
                        "name": "Keşan",
                        "lat": "40.9631",
                        "lng": "26.6144"
                    },
                    {
                        "name": "Uzunköprü",
                        "lat": "41.2697",
                        "lng": "26.6925"
                    },
                    {
                        "name": "Enez",
                        "lat": "40.6849",
                        "lng": "26.1664"
                    },
                    {
                        "name": "İpsala",
                        "lat": "40.9853",
                        "lng": "26.3572"
                    },
                    {
                        "name": "Havsa",
                        "lat": "41.5247",
                        "lng": "26.7299"
                    },
                    {
                        "name": "Süloğlu",
                        "lat": "41.1716",
                        "lng": "26.5186"
                    },
                    {
                        "name": "Meriç",
                        "lat": "41.1657",
                        "lng": "26.4474"
                    }
                ]
            },
            {
                "name": "Elazığ",
                "state_code": 23,
                "cities": [
                    {
                        "name": "Merkez",
                        "lat": "38.6800",
                        "lng": "39.2264"
                    },
                    {
                        "name": "Ağın",
                        "lat": "38.2289",
                        "lng": "39.2244"
                    },
                    {
                        "name": "Alacakaya",
                        "lat": "38.3178",
                        "lng": "39.3697"
                    },
                    {
                        "name": "Arıcak",
                        "lat": "38.5292",
                        "lng": "39.7006"
                    },
                    {
                        "name": "Baskil",
                        "lat": "38.6892",
                        "lng": "39.1261"
                    },
                    {
                        "name": "Karakoçan",
                        "lat": "38.8858",
                        "lng": "40.0033"
                    },
                    {
                        "name": "Keban",
                        "lat": "38.7917",
                        "lng": "39.6117"
                    },
                    {
                        "name": "Kovancılar",
                        "lat": "39.0511",
                        "lng": "39.9267"
                    },
                    {
                        "name": "Maden",
                        "lat": "38.5531",
                        "lng": "39.4058"
                    },
                    {
                        "name": "Palu",
                        "lat": "38.6928",
                        "lng": "39.8450"
                    },
                    {
                        "name": "Sivrice",
                        "lat": "38.7122",
                        "lng": "39.4608"
                    }
                ]
            },
            {
                "name": "Erzincan",
                "state_code": 24,
                "cities": [
                    {
                        "name": "Merkez",
                        "lat": "39.7492",
                        "lng": "39.4928"
                    },
                    {
                        "name": "Çayırlı",
                        "lat": "39.4556",
                        "lng": "39.4436"
                    },
                    {
                        "name": "İliç",
                        "lat": "39.5033",
                        "lng": "39.9242"
                    },
                    {
                        "name": "Kemah",
                        "lat": "39.3033",
                        "lng": "39.1964"
                    },
                    {
                        "name": "Kemaliye",
                        "lat": "39.4047",
                        "lng": "38.9247"
                    },
                    {
                        "name": "Refahiye",
                        "lat": "39.7325",
                        "lng": "39.5567"
                    },
                    {
                        "name": "Tercan",
                        "lat": "39.7794",
                        "lng": "40.2794"
                    },
                    {
                        "name": "Üzümlü",
                        "lat": "39.7467",
                        "lng": "39.7675"
                    }
                ]
            },
            {
                "name": "Erzurum",
                "state_code": 25,
                "cities": [
                    {
                        "name": "Merkez",
                        "lat": "39.9086",
                        "lng": "41.2769"
                    },
                    {
                        "name": "Aşkale",
                        "lat": "39.9347",
                        "lng": "40.7722"
                    },
                    {
                        "name": "Çat",
                        "lat": "40.2850",
                        "lng": "40.9714"
                    },
                    {
                        "name": "Hınıs",
                        "lat": "39.4011",
                        "lng": "41.1433"
                    },
                    {
                        "name": "Horasan",
                        "lat": "40.2358",
                        "lng": "42.1392"
                    },
                    {
                        "name": "İspir",
                        "lat": "40.3483",
                        "lng": "40.9981"
                    },
                    {
                        "name": "Karaçoban",
                        "lat": "40.6425",
                        "lng": "41.3681"
                    },
                    {
                        "name": "Karayazı",
                        "lat": "40.4725",
                        "lng": "42.0192"
                    },
                    {
                        "name": "Köprüköy",
                        "lat": "40.1161",
                        "lng": "40.5292"
                    },
                    {
                        "name": "Narman",
                        "lat": "40.1419",
                        "lng": "41.8308"
                    },
                    {
                        "name": "Oltu",
                        "lat": "40.5614",
                        "lng": "41.9775"
                    },
                    {
                        "name": "Olur",
                        "lat": "39.6344",
                        "lng": "41.8656"
                    },
                    {
                        "name": "Palandöken",
                        "lat": "39.9328",
                        "lng": "41.2628"
                    },
                    {
                        "name": "Pasinler",
                        "lat": "39.8481",
                        "lng": "41.8856"
                    },
                    {
                        "name": "Pazaryolu",
                        "lat": "39.8675",
                        "lng": "40.8122"
                    },
                    {
                        "name": "Şenkaya",
                        "lat": "40.3808",
                        "lng": "41.5486"
                    },
                    {
                        "name": "Tekman",
                        "lat": "39.5414",
                        "lng": "41.1800"
                    },
                    {
                        "name": "Tortum",
                        "lat": "40.2942",
                        "lng": "41.3531"
                    },
                    {
                        "name": "Uzundere",
                        "lat": "39.9564",
                        "lng": "41.4244"
                    },
                    {
                        "name": "Yakutiye",
                        "lat": "39.9086",
                        "lng": "41.2769"
                    }
                ]
            },
            {
                "name": "Eskişehir",
                "state_code": 26,
                "cities": [
                    {
                        "name": "Odunpazarı",
                        "lat": "39.7678",
                        "lng": "30.5191"
                    },
                    {
                        "name": "Tepebaşı",
                        "lat": "39.7631",
                        "lng": "30.5194"
                    },
                    {
                        "name": "Alpu",
                        "lat": "39.3820",
                        "lng": "31.2383"
                    },
                    {
                        "name": "Beylikova",
                        "lat": "39.3678",
                        "lng": "30.9794"
                    },
                    {
                        "name": "Çifteler",
                        "lat": "39.6347",
                        "lng": "31.0003"
                    },
                    {
                        "name": "Günyüzü",
                        "lat": "39.4889",
                        "lng": "30.6750"
                    },
                    {
                        "name": "Han",
                        "lat": "39.1969",
                        "lng": "30.8489"
                    },
                    {
                        "name": "İnönü",
                        "lat": "39.5294",
                        "lng": "30.9497"
                    },
                    {
                        "name": "Mahmudiye",
                        "lat": "39.5164",
                        "lng": "30.9478"
                    },
                    {
                        "name": "Mihalıççık",
                        "lat": "39.9283",
                        "lng": "31.0267"
                    },
                    {
                        "name": "Mihalgazi",
                        "lat": "39.7381",
                        "lng": "31.2500"
                    },
                    {
                        "name": "Sarıcakaya",
                        "lat": "39.7844",
                        "lng": "30.7614"
                    },
                    {
                        "name": "Seyitgazi",
                        "lat": "39.6031",
                        "lng": "31.1758"
                    },
                    {
                        "name": "Sivrihisar",
                        "lat": "39.4542",
                        "lng": "31.3058"
                    }
                ]
            },
            {
                "name": "Gaziantep",
                "state_code": 27,
                "cities": [
                    {
                        "name": "Şahinbey",
                        "lat": "37.0662",
                        "lng": "37.3719"
                    },
                    {
                        "name": "Şehitkamil",
                        "lat": "37.0328",
                        "lng": "37.4367"
                    },
                    {
                        "name": "Oğuzeli",
                        "lat": "37.0092",
                        "lng": "37.0369"
                    },
                    {
                        "name": "Yavuzeli",
                        "lat": "36.9583",
                        "lng": "37.2872"
                    },
                    {
                        "name": "Karkamış",
                        "lat": "36.8306",
                        "lng": "37.7844"
                    },
                    {
                        "name": "Nizip",
                        "lat": "37.0083",
                        "lng": "37.7983"
                    },
                    {
                        "name": "Araban",
                        "lat": "37.0453",
                        "lng": "37.8531"
                    },
                    {
                        "name": "Yavuzeli",
                        "lat": "36.9569",
                        "lng": "37.2269"
                    }
                ]
            },
            {
                "name": "Giresun",
                "state_code": 28,
                "cities": [
                    {
                        "name": "Merkez",
                        "lat": "40.9139",
                        "lng": "38.3895"
                    },
                    {
                        "name": "Alucra",
                        "lat": "40.9928",
                        "lng": "39.3844"
                    },
                    {
                        "name": "Bulancak",
                        "lat": "40.9286",
                        "lng": "38.4092"
                    },
                    {
                        "name": "Çamoluk",
                        "lat": "40.7192",
                        "lng": "38.2967"
                    },
                    {
                        "name": "Çanakçı",
                        "lat": "40.9575",
                        "lng": "38.4475"
                    },
                    {
                        "name": "Dereli",
                        "lat": "40.9319",
                        "lng": "38.5303"
                    },
                    {
                        "name": "Doğankent",
                        "lat": "40.8128",
                        "lng": "38.4972"
                    },
                    {
                        "name": "Espiye",
                        "lat": "41.0431",
                        "lng": "38.4025"
                    },
                    {
                        "name": "Eynesil",
                        "lat": "40.9567",
                        "lng": "38.4267"
                    },
                    {
                        "name": "Görele",
                        "lat": "41.0336",
                        "lng": "38.9225"
                    },
                    {
                        "name": "Güce",
                        "lat": "40.8206",
                        "lng": "38.3864"
                    },
                    {
                        "name": "Keşap",
                        "lat": "41.1156",
                        "lng": "38.3619"
                    },
                    {
                        "name": "Piraziz",
                        "lat": "40.9872",
                        "lng": "38.9375"
                    },
                    {
                        "name": "Şebinkarahisar",
                        "lat": "40.2883",
                        "lng": "38.4194"
                    },
                    {
                        "name": "Tirebolu",
                        "lat": "41.0578",
                        "lng": "38.8808"
                    },
                    {
                        "name": "Yağlıdere",
                        "lat": "40.7297",
                        "lng": "38.3589"
                    }
                ]
            },
            {
                "name": "Gümüşhane",
                "state_code": 29,
                "cities": [
                    {
                        "name": "Merkez",
                        "lat": "40.4606",
                        "lng": "39.4817"
                    },
                    {
                        "name": "Kelkit",
                        "lat": "40.9425",
                        "lng": "39.1689"
                    },
                    {
                        "name": "Şiran",
                        "lat": "40.3117",
                        "lng": "39.1214"
                    },
                    {
                        "name": "Torul",
                        "lat": "40.5806",
                        "lng": "39.3792"
                    },
                    {
                        "name": "Köse",
                        "lat": "40.7431",
                        "lng": "39.3625"
                    },
                    {
                        "name": "Kürtün",
                        "lat": "40.8931",
                        "lng": "39.2483"
                    }
                ]
            },
            {
                "name": "Hakkari",
                "state_code": 30,
                "cities": [
                    {
                        "name": "Merkez",
                        "lat": "37.5744",
                        "lng": "43.7408"
                    },
                    {
                        "name": "Çukurca",
                        "lat": "37.3583",
                        "lng": "43.4642"
                    },
                    {
                        "name": "Şemdinli",
                        "lat": "37.1956",
                        "lng": "44.4147"
                    },
                    {
                        "name": "Yüksekova",
                        "lat": "37.5731",
                        "lng": "44.2956"
                    }
                ]
            },
            {
                "name": "Hatay",
                "state_code": 31,
                "cities": [
                    {
                        "name": "Antakya",
                        "lat": "36.2066",
                        "lng": "36.1572"
                    },
                    {
                        "name": "Defne",
                        "lat": "36.2075",
                        "lng": "36.1747"
                    },
                    {
                        "name": "Dörtyol",
                        "lat": "36.1225",
                        "lng": "36.1017"
                    },
                    {
                        "name": "Erzin",
                        "lat": "36.9544",
                        "lng": "36.2000"
                    },
                    {
                        "name": "Hassa",
                        "lat": "36.8561",
                        "lng": "36.7883"
                    },
                    {
                        "name": "İskenderun",
                        "lat": "36.5819",
                        "lng": "36.1731"
                    },
                    {
                        "name": "Kırıkhan",
                        "lat": "36.3572",
                        "lng": "36.2278"
                    },
                    {
                        "name": "Payas",
                        "lat": "36.1314",
                        "lng": "36.2158"
                    },
                    {
                        "name": "Reyhanlı",
                        "lat": "36.2725",
                        "lng": "36.5722"
                    },
                    {
                        "name": "Samandağ",
                        "lat": "36.0800",
                        "lng": "35.9658"
                    },
                    {
                        "name": "Yayladağı",
                        "lat": "36.2467",
                        "lng": "36.2900"
                    }
                ]
            },
            {
                "name": "Isparta",
                "state_code": 32,
                "cities": [
                    {
                        "name": "Merkez",
                        "lat": "37.7631",
                        "lng": "30.5569"
                    },
                    {
                        "name": "Atabey",
                        "lat": "37.6653",
                        "lng": "30.4394"
                    },
                    {
                        "name": "Eğirdir",
                        "lat": "37.8747",
                        "lng": "30.8414"
                    },
                    {
                        "name": "Gelendost",
                        "lat": "38.0069",
                        "lng": "31.2361"
                    },
                    {
                        "name": "Gönen",
                        "lat": "38.0303",
                        "lng": "30.8561"
                    },
                    {
                        "name": "Keçiborlu",
                        "lat": "37.9481",
                        "lng": "30.5003"
                    },
                    {
                        "name": "Senirkent",
                        "lat": "37.8056",
                        "lng": "30.5297"
                    },
                    {
                        "name": "Sütçüler",
                        "lat": "37.8636",
                        "lng": "30.8247"
                    },
                    {
                        "name": "Şarkikaraağaç",
                        "lat": "38.0964",
                        "lng": "31.0811"
                    },
                    {
                        "name": "Uluborlu",
                        "lat": "37.6769",
                        "lng": "31.7917"
                    },
                    {
                        "name": "Yalvaç",
                        "lat": "38.2961",
                        "lng": "31.1719"
                    },
                    {
                        "name": "Yenişarbademli",
                        "lat": "38.3278",
                        "lng": "30.9739"
                    }
                ]
            },
            {
                "name": "Mersin",
                "state_code": 33,
                "cities": [
                    {
                        "name": "Akdeniz",
                        "lat": "36.7936",
                        "lng": "34.6339"
                    },
                    {
                        "name": "Mezitli",
                        "lat": "36.7750",
                        "lng": "34.6189"
                    },
                    {
                        "name": "Toroslar",
                        "lat": "36.8292",
                        "lng": "34.6464"
                    },
                    {
                        "name": "Yenişehir",
                        "lat": "36.8061",
                        "lng": "34.6394"
                    },
                    {
                        "name": "Anamur",
                        "lat": "36.0767",
                        "lng": "32.8400"
                    },
                    {
                        "name": "Aydıncık",
                        "lat": "36.2192",
                        "lng": "33.9975"
                    },
                    {
                        "name": "Bozyazı",
                        "lat": "36.4306",
                        "lng": "32.3144"
                    },
                    {
                        "name": "Çamlıyayla",
                        "lat": "37.0236",
                        "lng": "34.0878"
                    },
                    {
                        "name": "Erdemli",
                        "lat": "36.6056",
                        "lng": "34.3044"
                    },
                    {
                        "name": "Gülnar",
                        "lat": "36.4000",
                        "lng": "33.7417"
                    },
                    {
                        "name": "Mut",
                        "lat": "36.6469",
                        "lng": "33.4483"
                    },
                    {
                        "name": "Silifke",
                        "lat": "36.3778",
                        "lng": "33.9344"
                    },
                    {
                        "name": "Tarsus",
                        "lat": "36.9206",
                        "lng": "34.8783"
                    }
                ]
            },
            {
                "name": "İstanbul",
                "state_code": 34,
                "cities": [
                    {
                        "name": "Adalar",
                        "lat": "40.8744",
                        "lng": "29.1292"
                    },
                    {
                        "name": "Arnavutköy",
                        "lat": "41.1846",
                        "lng": "28.7401"
                    },
                    {
                        "name": "Ataşehir",
                        "lat": "40.9879",
                        "lng": "29.1246"
                    },
                    {
                        "name": "Avcılar",
                        "lat": "40.9808",
                        "lng": "28.7170"
                    },
                    {
                        "name": "Bağcılar",
                        "lat": "41.0358",
                        "lng": "28.8578"
                    },
                    {
                        "name": "Bahçelievler",
                        "lat": "41.0007",
                        "lng": "28.8590"
                    },
                    {
                        "name": "Bakırköy",
                        "lat": "40.9817",
                        "lng": "28.8672"
                    },
                    {
                        "name": "Başakşehir",
                        "lat": "41.0966",
                        "lng": "28.8061"
                    },
                    {
                        "name": "Bayrampaşa",
                        "lat": "41.0359",
                        "lng": "28.9128"
                    },
                    {
                        "name": "Beşiktaş",
                        "lat": "41.0428",
                        "lng": "29.0077"
                    },
                    {
                        "name": "Beykoz",
                        "lat": "41.1421",
                        "lng": "29.1040"
                    },
                    {
                        "name": "Beylikdüzü",
                        "lat": "41.0014",
                        "lng": "28.6412"
                    },
                    {
                        "name": "Beyoğlu",
                        "lat": "41.0317",
                        "lng": "28.9778"
                    },
                    {
                        "name": "Büyükçekmece",
                        "lat": "41.0157",
                        "lng": "28.5959"
                    },
                    {
                        "name": "Çatalca",
                        "lat": "41.1406",
                        "lng": "28.4612"
                    },
                    {
                        "name": "Çekmeköy",
                        "lat": "41.0297",
                        "lng": "29.1750"
                    },
                    {
                        "name": "Esenler",
                        "lat": "41.0360",
                        "lng": "28.8567"
                    },
                    {
                        "name": "Esenyurt",
                        "lat": "41.0348",
                        "lng": "28.6803"
                    },
                    {
                        "name": "Eyüp",
                        "lat": "41.0469",
                        "lng": "28.9252"
                    },
                    {
                        "name": "Fatih",
                        "lat": "41.0136",
                        "lng": "28.9496"
                    },
                    {
                        "name": "Gaziosmanpaşa",
                        "lat": "41.0618",
                        "lng": "28.9132"
                    },
                    {
                        "name": "Güngören",
                        "lat": "41.0153",
                        "lng": "28.8688"
                    },
                    {
                        "name": "Kadıköy",
                        "lat": "40.9778",
                        "lng": "29.0822"
                    },
                    {
                        "name": "Kağıthane",
                        "lat": "41.0857",
                        "lng": "28.9914"
                    },
                    {
                        "name": "Kartal",
                        "lat": "40.8869",
                        "lng": "29.1883"
                    },
                    {
                        "name": "Küçükçekmece",
                        "lat": "41.0096",
                        "lng": "28.7809"
                    },
                    {
                        "name": "Maltepe",
                        "lat": "40.9346",
                        "lng": "29.1469"
                    },
                    {
                        "name": "Pendik",
                        "lat": "40.8724",
                        "lng": "29.2364"
                    },
                    {
                        "name": "Sancaktepe",
                        "lat": "41.0067",
                        "lng": "29.2169"
                    },
                    {
                        "name": "Sarıyer",
                        "lat": "41.1706",
                        "lng": "29.0543"
                    },
                    {
                        "name": "Silivri",
                        "lat": "41.0732",
                        "lng": "28.2469"
                    },
                    {
                        "name": "Sultanbeyli",
                        "lat": "40.9613",
                        "lng": "29.2874"
                    },
                    {
                        "name": "Sultangazi",
                        "lat": "41.1158",
                        "lng": "28.8826"
                    },
                    {
                        "name": "Şile",
                        "lat": "41.1757",
                        "lng": "29.6134"
                    },
                    {
                        "name": "Şişli",
                        "lat": "41.0608",
                        "lng": "28.9876"
                    },
                    {
                        "name": "Tuzla",
                        "lat": "40.8348",
                        "lng": "29.3090"
                    },
                    {
                        "name": "Ümraniye",
                        "lat": "41.0228",
                        "lng": "29.1274"
                    },
                    {
                        "name": "Üsküdar",
                        "lat": "41.0243",
                        "lng": "29.0155"
                    },
                    {
                        "name": "Zeytinburnu",
                        "lat": "40.9981",
                        "lng": "28.9035"
                    }
                ]
            },
            {
                "name": "İzmir",
                "state_code": 35,
                "cities": [
                    {
                        "name": "Aliağa",
                        "lat": "38.7997",
                        "lng": "26.9778"
                    },
                    {
                        "name": "Balçova",
                        "lat": "38.4072",
                        "lng": "27.0689"
                    },
                    {
                        "name": "Bayındır",
                        "lat": "38.2250",
                        "lng": "27.7853"
                    },
                    {
                        "name": "Bayraklı",
                        "lat": "38.4581",
                        "lng": "27.1922"
                    },
                    {
                        "name": "Bergama",
                        "lat": "39.1233",
                        "lng": "27.1819"
                    },
                    {
                        "name": "Beydağ",
                        "lat": "38.7372",
                        "lng": "28.0514"
                    },
                    {
                        "name": "Bornova",
                        "lat": "38.4597",
                        "lng": "27.2189"
                    },
                    {
                        "name": "Buca",
                        "lat": "38.3781",
                        "lng": "27.1294"
                    },
                    {
                        "name": "Çeşme",
                        "lat": "38.3206",
                        "lng": "26.3086"
                    },
                    {
                        "name": "Çiğli",
                        "lat": "38.4861",
                        "lng": "27.0144"
                    },
                    {
                        "name": "Dikili",
                        "lat": "39.0744",
                        "lng": "26.8819"
                    },
                    {
                        "name": "Foça",
                        "lat": "38.6642",
                        "lng": "26.7572"
                    },
                    {
                        "name": "Gaziemir",
                        "lat": "38.3208",
                        "lng": "27.1567"
                    },
                    {
                        "name": "Güzelbahçe",
                        "lat": "38.3183",
                        "lng": "26.8361"
                    },
                    {
                        "name": "Karabağlar",
                        "lat": "38.3611",
                        "lng": "27.0917"
                    },
                    {
                        "name": "Karaburun",
                        "lat": "38.7667",
                        "lng": "26.2092"
                    },
                    {
                        "name": "Karşıyaka",
                        "lat": "38.7417",
                        "lng": "27.0825"
                    },
                    {
                        "name": "Kemalpaşa",
                        "lat": "38.4261",
                        "lng": "27.4242"
                    },
                    {
                        "name": "Kınık",
                        "lat": "38.5281",
                        "lng": "26.9258"
                    },
                    {
                        "name": "Kiraz",
                        "lat": "38.2000",
                        "lng": "28.1953"
                    },
                    {
                        "name": "Konak",
                        "lat": "38.4181",
                        "lng": "27.1283"
                    },
                    {
                        "name": "Menderes",
                        "lat": "38.1872",
                        "lng": "27.0511"
                    },
                    {
                        "name": "Menemen",
                        "lat": "38.6156",
                        "lng": "27.0667"
                    },
                    {
                        "name": "Narlıdere",
                        "lat": "38.3542",
                        "lng": "26.9869"
                    },
                    {
                        "name": "Ödemiş",
                        "lat": "38.2367",
                        "lng": "27.9706"
                    },
                    {
                        "name": "Seferihisar",
                        "lat": "38.1939",
                        "lng": "26.8414"
                    },
                    {
                        "name": "Selçuk",
                        "lat": "37.9528",
                        "lng": "27.3694"
                    },
                    {
                        "name": "Tire",
                        "lat": "38.0844",
                        "lng": "27.7417"
                    },
                    {
                        "name": "Torbalı",
                        "lat": "38.2044",
                        "lng": "27.3611"
                    },
                    {
                        "name": "Urla",
                        "lat": "38.3225",
                        "lng": "26.7658"
                    }
                ]
            },
            {
                "name": "Kars",
                "state_code": 36,
                "cities": [
                    {
                        "name": "Akyaka",
                        "lat": "40.0853",
                        "lng": "43.0964"
                    },
                    {
                        "name": "Arpaçay",
                        "lat": "40.1022",
                        "lng": "43.5136"
                    },
                    {
                        "name": "Digor",
                        "lat": "40.0447",
                        "lng": "43.1511"
                    },
                    {
                        "name": "Kağızman",
                        "lat": "40.1625",
                        "lng": "43.1317"
                    },
                    {
                        "name": "Merkez",
                        "lat": "40.6064",
                        "lng": "43.0978"
                    },
                    {
                        "name": "Sarıkamış",
                        "lat": "40.2528",
                        "lng": "42.5328"
                    },
                    {
                        "name": "Selim",
                        "lat": "40.9978",
                        "lng": "42.5475"
                    },
                    {
                        "name": "Susuz",
                        "lat": "40.0633",
                        "lng": "42.4550"
                    }
                ]
            },
            {
                "name": "Kastamonu",
                "state_code": 37,
                "cities": [
                    {
                        "name": "Abana",
                        "lat": "41.8981",
                        "lng": "34.6011"
                    },
                    {
                        "name": "Ağlı",
                        "lat": "41.7567",
                        "lng": "33.0136"
                    },
                    {
                        "name": "Araç",
                        "lat": "41.0747",
                        "lng": "33.0433"
                    },
                    {
                        "name": "Azdavay",
                        "lat": "41.7817",
                        "lng": "33.0067"
                    },
                    {
                        "name": "Bozkurt",
                        "lat": "41.6214",
                        "lng": "33.4694"
                    },
                    {
                        "name": "Cide",
                        "lat": "41.9647",
                        "lng": "33.7178"
                    },
                    {
                        "name": "Çatalzeytin",
                        "lat": "41.5572",
                        "lng": "33.7111"
                    },
                    {
                        "name": "Daday",
                        "lat": "41.6403",
                        "lng": "32.8883"
                    },
                    {
                        "name": "Devrekani",
                        "lat": "41.0344",
                        "lng": "33.9078"
                    },
                    {
                        "name": "Doğanyurt",
                        "lat": "41.3550",
                        "lng": "33.8472"
                    },
                    {
                        "name": "Hanönü",
                        "lat": "41.6172",
                        "lng": "33.6164"
                    },
                    {
                        "name": "İhsangazi",
                        "lat": "41.3297",
                        "lng": "33.3692"
                    },
                    {
                        "name": "İnebolu",
                        "lat": "41.9583",
                        "lng": "33.7767"
                    },
                    {
                        "name": "Merkez",
                        "lat": "41.3764",
                        "lng": "33.7775"
                    },
                    {
                        "name": "Küre",
                        "lat": "41.4044",
                        "lng": "33.5064"
                    },
                    {
                        "name": "Pınarbaşı",
                        "lat": "41.7914",
                        "lng": "33.6961"
                    },
                    {
                        "name": "Şenpazar",
                        "lat": "41.5203",
                        "lng": "33.4186"
                    },
                    {
                        "name": "Seydiler",
                        "lat": "41.1981",
                        "lng": "33.2206"
                    },
                    {
                        "name": "Taşköprü",
                        "lat": "41.6358",
                        "lng": "33.7439"
                    },
                    {
                        "name": "Tosya",
                        "lat": "41.0253",
                        "lng": "34.0342"
                    }
                ]
            },
            {
                "name": "Kayseri",
                "state_code": 38,
                "cities": [
                    {
                        "name": "Akkışla",
                        "lat": "39.2811",
                        "lng": "35.9936"
                    },
                    {
                        "name": "Bünyan",
                        "lat": "38.9383",
                        "lng": "35.6286"
                    },
                    {
                        "name": "Develi",
                        "lat": "38.3906",
                        "lng": "35.4944"
                    },
                    {
                        "name": "Felahiye",
                        "lat": "38.8783",
                        "lng": "35.5636"
                    },
                    {
                        "name": "Hacılar",
                        "lat": "38.6258",
                        "lng": "35.5869"
                    },
                    {
                        "name": "İncesu",
                        "lat": "38.7642",
                        "lng": "35.6372"
                    },
                    {
                        "name": "Kocasinan",
                        "lat": "38.7025",
                        "lng": "35.5236"
                    },
                    {
                        "name": "Melikgazi",
                        "lat": "38.7353",
                        "lng": "35.5042"
                    },
                    {
                        "name": "Özvatan",
                        "lat": "39.1572",
                        "lng": "35.5022"
                    },
                    {
                        "name": "Pınarbaşı",
                        "lat": "38.6272",
                        "lng": "35.8358"
                    },
                    {
                        "name": "Sarıoğlan",
                        "lat": "38.8744",
                        "lng": "35.9653"
                    },
                    {
                        "name": "Sarız",
                        "lat": "39.3136",
                        "lng": "36.0622"
                    },
                    {
                        "name": "Talas",
                        "lat": "38.6953",
                        "lng": "35.5589"
                    },
                    {
                        "name": "Tomarza",
                        "lat": "38.4714",
                        "lng": "35.3772"
                    },
                    {
                        "name": "Yahyalı",
                        "lat": "38.4453",
                        "lng": "35.5592"
                    },
                    {
                        "name": "Yeşilhisar",
                        "lat": "38.2744",
                        "lng": "35.3311"
                    }
                ]
            },
            {
                "name": "Kırklareli",
                "state_code": 39,
                "cities": [
                    {
                        "name": "Babaeski",
                        "lat": "41.4267",
                        "lng": "27.0872"
                    },
                    {
                        "name": "Demirköy",
                        "lat": "41.0983",
                        "lng": "28.1042"
                    },
                    {
                        "name": "Merkez",
                        "lat": "41.7336",
                        "lng": "27.2183"
                    },
                    {
                        "name": "Kofçaz",
                        "lat": "41.9675",
                        "lng": "27.6389"
                    },
                    {
                        "name": "Lüleburgaz",
                        "lat": "41.4061",
                        "lng": "27.3547"
                    },
                    {
                        "name": "Pehlivanköy",
                        "lat": "41.5383",
                        "lng": "27.2306"
                    },
                    {
                        "name": "Pınarhisar",
                        "lat": "41.4819",
                        "lng": "27.5411"
                    },
                    {
                        "name": "Vize",
                        "lat": "41.5739",
                        "lng": "27.7692"
                    }
                ]
            },
            {
                "name": "Kırşehir",
                "state_code": 40,
                "cities": [
                    {
                        "name": "Akçakent",
                        "lat": "39.6964",
                        "lng": "33.5728"
                    },
                    {
                        "name": "Akpınar",
                        "lat": "39.8850",
                        "lng": "33.5958"
                    },
                    {
                        "name": "Boztepe",
                        "lat": "39.8028",
                        "lng": "33.7844"
                    },
                    {
                        "name": "Çiçekdağı",
                        "lat": "39.7333",
                        "lng": "33.5997"
                    },
                    {
                        "name": "Kaman",
                        "lat": "39.3539",
                        "lng": "33.7814"
                    },
                    {
                        "name": "Merkez",
                        "lat": "39.1500",
                        "lng": "34.1639"
                    },
                    {
                        "name": "Mucur",
                        "lat": "39.2128",
                        "lng": "33.7572"
                    }
                ]
            },
            {
                "name": "Kocaeli",
                "state_code": 41,
                "cities": [
                    {
                        "name": "Başiskele",
                        "lat": "40.7422",
                        "lng": "29.8536"
                    },
                    {
                        "name": "Çayırova",
                        "lat": "40.8942",
                        "lng": "29.3603"
                    },
                    {
                        "name": "Darıca",
                        "lat": "40.7858",
                        "lng": "29.3744"
                    },
                    {
                        "name": "Derince",
                        "lat": "40.7656",
                        "lng": "29.8700"
                    },
                    {
                        "name": "Dilovası",
                        "lat": "40.7622",
                        "lng": "29.4825"
                    },
                    {
                        "name": "Gebze",
                        "lat": "40.8047",
                        "lng": "29.4308"
                    },
                    {
                        "name": "Gölcük",
                        "lat": "40.7728",
                        "lng": "29.8206"
                    },
                    {
                        "name": "İzmit",
                        "lat": "40.7650",
                        "lng": "29.9400"
                    },
                    {
                        "name": "Kandıra",
                        "lat": "41.0364",
                        "lng": "30.1103"
                    },
                    {
                        "name": "Karamürsel",
                        "lat": "40.6964",
                        "lng": "29.6172"
                    },
                    {
                        "name": "Kartepe",
                        "lat": "40.8203",
                        "lng": "29.9903"
                    },
                    {
                        "name": "Körfez",
                        "lat": "40.7761",
                        "lng": "29.7214"
                    }
                ]
            },
            {
                "name": "Konya",
                "state_code": 42,
                "cities": [
                    {
                        "name": "Ahırlı",
                        "lat": "37.8792",
                        "lng": "32.2256"
                    },
                    {
                        "name": "Akören",
                        "lat": "38.1056",
                        "lng": "31.6156"
                    },
                    {
                        "name": "Akşehir",
                        "lat": "38.3550",
                        "lng": "31.4169"
                    },